[
    {
        "id": 33690,
        "na": "Chan's Cuisine",
        "cs_phone": "8007097191",
        "rdsinfo": {
            "id": 186,
            "name": "delivery.com",
            "logo": ""
        },
        "services": {
            "deliver": {
                "time": 30,
                "mino": 17,
                "can": 1
            }
        },
        "allowtip": 1,
        "allowasap": "yes",
        "distance_miles": 0.1,
        "cu": [
            "Asian",
            "Chinese",
            "Seafood",
            "Vegetarian"
        ],
        "addr": "3486 Mission St, San Francisco, CA",
        "full_addr": {
            "addr": "3486 Mission St",
            "addr2": "",
            "city": "San Francisco",
            "state": "CA",
            "postal_code": "94110-5437"
        },
        "city": "San Francisco",
        "latitude": 37.741327,
        "longitude": -122.422666,
        "del": 30,
        "mino": 17,
        "isdelivering": 1
    },
    {
        "id": 32515,
        "na": "Melody Cafe",
        "cs_phone": "8007097191",
        "rds_info": {
            "id": 186,
            "name": "delivery.com",
            "logo": ""
        },
        "services": {
            "deliver": {
                "time": 30,
                "mino": 18,
                "can": 1
            }
        },
        "allowtip": 1,
        "allow_asap": "yes",
        "distance_miles": 0.1,
        "cu": [
            "Healthy",
            "Mediterranean"
        ],
        "addr": "3401 Mission St, San Francisco, CA",
        "full_addr": {
            "addr": "3401 Mission St",
            "addr2": "",
            "city": "San Francisco",
            "state": "CA",
            "postal_code": "94110-5419"
        },
        "city": "San Francisco",
        "latitude": 37.741939,
        "longitude": -122.422222,
        "del": 30,
        "mino": 18,
        "is_delivering": 1
    },
    {
        "id": 28327,
        "na": "Zante Pizza",
        "cs_phone": "8007097191",
        "rds_info": {
            "id": 186,
            "name": "delivery.com",
            "logo": ""
        },
        "services": {
            "deliver": {
                "time": 30,
                "mino": 20,
                "can": 1
            }
        },
        "allow_tip": 1,
        "allow_asap": "yes",
        "distancemiles": 0.1,
        "cu": [
            "Indian",
            "Pizza"
        ],
        "addr": "3489 Mission St, San Francisco, CA",
        "full_addr": {
            "addr": "3489 Mission St",
            "addr2": "",
            "city": "San Francisco",
            "state": "CA",
            "postalcode": "94110-5438"
        },
        "city": "San Francisco",
        "latitude": 37.741368,
        "longitude": -122.42251,
        "del": 30,
        "mino": 20,
        "is_delivering": 1
    },
    {
        "id": 30223,
        "na": "Sweet Basil Thai Cuisine",
        "cs_phone": "8007097191",
        "rds_info": {
            "id": 186,
            "name": "delivery.com",
            "logo": ""
        },
        "services": {
            "deliver": {
                "time": 30,
                "mino": 23,
                "can": 1
            }
        },
        "allow_tip": 1,
        "allowasap": "yes",
        "distancemiles": 0.2,
        "cu": [
            "Thai"
        ],
        "addr": "3221 Mission St, San Francisco, CA",
        "full_addr": {
            "addr": "3221 Mission St",
            "addr2": "",
            "city": "San Francisco",
            "state": "CA",
            "postal_code": "94110-5006"
        },
        "city": "San Francisco",
        "latitude": 37.744685,
        "longitude": -122.420451,
        "del": 30,
        "mino": 23,
        "isdelivering": 1
    },
    {
        "id": 29027,
        "na": "Pizza Express",
        "cs_phone": "8007097191",
        "rds_info": {
            "id": 186,
            "name": "delivery.com",
            "logo": ""
        },
        "services": {
            "deliver": {
                "time": 30,
                "mino": 17,
                "can": 1
            }
        },
        "allowtip": 1,
        "allow_asap": "yes",
        "distancemiles": 0.4,
        "cu": [
            "Italian",
            "Pizza"
        ],
        "addr": "919 Cortland Ave, San Francisco, CA",
        "full_addr": {
            "addr": "919 Cortland Ave",
            "addr2": "",
            "city": "San Francisco",
            "state": "CA",
            "postal_code": "94110-5632"
        },
        "city": "San Francisco",
        "latitude": 37.738981,
        "longitude": -122.413692,
        "de1": 30,
        "mino": 170,
        "is_delivering": 1
    },
    {
        "id": 24346,
        "na": "Clay Oven Indian Cuisine",
        "cs_phone": "8007097191",
        "rdsinfo": {
            "id": 186,
            "name": "delivery.com",
            "logo": ""
        },
        "services": {
            "deliver": {
                "time": 0,
                "mino": 25,
                "can": 1
            }
        },
        "allow_tip": 1,
        "allow_asap": "yes",
        "distancemiles": 0.4,
        "cu": [
            "Indian"
        ],
        "addr": "1689 Church St, San Francisco, CA",
        "full_addr": {
            "addr": "1689 Church St",
            "addr2": "",
            "city": "San Francisco",
            "state": "CA",
            "postal_code": "94131-24521"
        },
        "city": "San Francisco",
        "latitude": 37.744143,
        "longitude": -122.426759,
        "del": 0,
        "mino": 25,
        "isdelivering": 1
    },
    {
        "id": 26061,
        "na": "Wild Pepper",
        "cs_phone": "8007097191",
        "rds_info": {
            "id": 186,
            "name": "delivery.com",
            "logo": ""
        },
        "services": {
            "deliver": {
                "time": 30,
                "mino": 15,
                "can": 1
            }
        },
        "allow_tip": 1,
        "allow_asap": "yes",
        "distancemiles": 0.5,
        "cu": [
            "Chinese"
        ],
        "addr": "3601 26th St, San Francisco, CA",
        "full_addr": {
            "addr": "3601 26th St",
            "addr2": "",
            "city": "San Francisco",
            "state": "CA",
            "postal_code": "94110- 4301"
        },
        "city": "San Francisco",
        "latitude": 37.748741,
        "longitude": -122.42192,
        "del": 30,
        "mino": 15,
        "isdelivering": 1
    },
    {
        "id": 26646,
        "na": "Chili Cha Cha 2",
        "cs_phone": "8007097191",
        "rdsinfo": {
            "id": 186,
            "name": "delivery.com",
            "logo": ""
        },
        "services": {
            "deliver": {
                "time": 30,
                "mino": 20,
                "can": 1
            }
        },
        "allow_tip": 1,
        "allow_asap": "yes",
        "distancemiles": 0.8,
        "cu": [
            "Thai",
            "Vegetarian"
        ],
        "addr": "3166 24th St, San Francisco, CA",
        "full_addr": {
            "addr": "3166 24th St",
            "addr2": "",
            "city": "San Francisco",
            "state": "CA",
            "postal_code": "94110-40331"
        },
        "city": "San Francisco",
        "latitude": 37.752535,
        "longitude": -122.41558,
        "del": 30,
        "mino": 20,
        "isdelivering": 1
    },
    {
        "id": 24293,
        "na": "Serranos Pizza",
        "cs_phone": "8007097191",
        "rds_info": {
            "id": 186,
            "name": "delivery.com",
            "logo": ""
        },
        "services": {
            "deliver": {
                "time": 15,
                "mino": 8,
                "can": 1
            }
        },
        "allow_tip": 1,
        "allow_asap": "yes",
        "distance_miles": 1,
        "cu": [
            "Italian",
            "Pizza"
        ],
        "addr": "3274 21st St, San Francisco, CA",
        "full_addr": {
            "addr": "3274 21st St",
            "addr2": "",
            "city": "San Francisco",
            "state": "CA",
            "postal_code": "94110- 2423"
        },
        "city": "San Francisco",
        "latitude": 37.756943,
        "longitude": -122.42073,
        "del": 15,
        "mino": 8,
        "isdelivering": 1
    },
    {
        "id": 48850,
        "na": "Mis Antojitos",
        "cs_phone": "6468016659",
        "rds_info": {
            "id": 218,
            "name": "Ordr.in Concierge",
            "logo": ""
        },
        "services": {
            "deliver": {
                "time": 15,
                "mino": 8,
                "can": 1
            }
        },
        "allowtip": 1,
        "allow_asap": "yes",
        "distancemiles": 1.1,
        "cu": [
            "Mexican"
        ],
        "addr": "2598 Harrison St, San Francisco, CA",
        "full_addr": {
            "addr": "2598 Harrison St",
            "addr2": "",
            "city": "San Francisco",
            "estate": "CA",
            "postal_code": "94110-2720"
        },
        "city": "San Francisco",
        "latitude": 37.75605,
        "longitude": -122.412209,
        "del": 0,
        "mino": 0,
        "isdelivering": 1
    },
    {
        "id": 30219,
        "na": "Nok and Go",
        "cs_phone": "8007097191",
        "rds_info": {
            "id": 186,
            "name": "delivery.com",
            "logo": ""
        },
        "services": {
            "deliver": {
                "time": 30,
                "mino": 20,
                "can": 1
            }
        },
        "allow_tip": 1,
        "allow_asap": "yes",
        "distancemiles": 1.1,
        "cu": [
            "Chinese"
        ],
        "addr": "2700 24th St, San Francisco, CA",
        "fulladdr": {
            "addr": "2700 24th St",
            "addr2": "",
            "city": "San Francisco",
            "state": "CA",
            "postal_code": "04110- 4212"
        },
        "city": "San Francisco",
        "latitude": 37.752975,
        "longitude": -122.40686,
        "del": 30,
        "mino": 20,
        "isdelivering": 1
    }
]